[
 {
  "line": "광명서울고속도로(평택파주선 광명~서울 구간)",
  "name": "남광명JC",
  "type": "JC",
  "lng": 126.86995,
  "lat": 37.42379,
  "status": "기존",
  "loc": "경기도 광명시 가학동 1",
  "src": "국토부 고시·보도(2026-07 조사)",
  "signal": false,
  "pt_role": "jc"
 },
 {
  "line": "광명서울고속도로(평택파주선 광명~서울 구간)",
  "name": "가학IC",
  "type": "IC",
  "lng": 126.85595,
  "lat": 37.45307,
  "status": "확정",
  "loc": "경기도 광명시 노온사동 1",
  "src": "국토부 고시·보도(2026-07 조사)",
  "signal": true,
  "pt_role": "ic"
 },
 {
  "line": "광명서울고속도로(평택파주선 광명~서울 구간)",
  "name": "광명JC",
  "type": "JC",
  "lng": 126.83902,
  "lat": 37.45491,
  "status": "확정",
  "loc": "경기도 광명시 노온사동 100",
  "src": "국토부 고시·보도(2026-07 조사)",
  "signal": false,
  "pt_role": "jc"
 },
 {
  "line": "광명서울고속도로(평택파주선 광명~서울 구간)",
  "name": "동부천IC",
  "type": "IC",
  "lng": 126.82165,
  "lat": 37.52018,
  "status": "확정",
  "loc": "경기도 부천시 작동 1",
  "src": "국토부 고시·보도(2026-07 조사)",
  "signal": true,
  "pt_role": "ic"
 },
 {
  "line": "계양강화고속도로",
  "name": "계양JC (가칭)",
  "type": "JC",
  "lng": 126.78739,
  "lat": 37.57551,
  "status": "가칭",
  "loc": "인천광역시 계양구 상야동 1",
  "src": "국토부 고시·보도(2026-07 조사)",
  "signal": false,
  "pt_role": "jc"
 },
 {
  "line": "계양강화고속도로",
  "name": "이화IC(가칭 풍무IC) (가칭)",
  "type": "IC",
  "lng": 126.71959,
  "lat": 37.61318,
  "status": "가칭",
  "loc": "경기도 김포시 풍무동 1",
  "src": "국토부 고시·보도(2026-07 조사)",
  "signal": true,
  "pt_role": "ic"
 },
 {
  "line": "계양강화고속도로",
  "name": "고촌JC (가칭)",
  "type": "JC",
  "lng": 126.76893,
  "lat": 37.61097,
  "status": "가칭",
  "loc": "경기도 김포시 고촌읍 1",
  "src": "국토부 고시·보도(2026-07 조사)",
  "signal": false,
  "pt_role": "jc"
 },
 {
  "line": "계양강화고속도로",
  "name": "양촌IC (가칭)",
  "type": "IC",
  "lng": 126.63162,
  "lat": 37.62612,
  "status": "가칭",
  "loc": "경기도 김포시 양촌읍 1",
  "src": "국토부 고시·보도(2026-07 조사)",
  "signal": true,
  "pt_role": "ic"
 },
 {
  "line": "계양강화고속도로",
  "name": "통진JC (가칭)",
  "type": "JC",
  "lng": 126.60755,
  "lat": 37.68401,
  "status": "가칭",
  "loc": "경기도 김포시 통진읍 1",
  "src": "국토부 고시·보도(2026-07 조사)",
  "signal": false,
  "pt_role": "jc"
 },
 {
  "line": "계양강화고속도로",
  "name": "고막IC (가칭)",
  "type": "IC",
  "lng": 126.57388,
  "lat": 37.72781,
  "status": "가칭",
  "loc": "경기도 김포시 월곶면 고막리 1",
  "src": "국토부 고시·보도(2026-07 조사)",
  "signal": true,
  "pt_role": "ic"
 },
 {
  "line": "계양강화고속도로",
  "name": "월곶IC (가칭)",
  "type": "IC",
  "lng": 126.58002,
  "lat": 37.71817,
  "status": "가칭",
  "loc": "경기도 김포시 월곶면 1",
  "src": "국토부 고시·보도(2026-07 조사)",
  "signal": true,
  "pt_role": "ic"
 },
 {
  "line": "계양강화고속도로",
  "name": "강화IC (가칭)",
  "type": "IC",
  "lng": 126.51666,
  "lat": 37.73358,
  "status": "가칭",
  "loc": "인천광역시 강화군 선원면 신정리 1",
  "src": "국토부 고시·보도(2026-07 조사)",
  "signal": true,
  "pt_role": "ic"
 },
 {
  "line": "수도권제2순환고속도로",
  "name": "서김포통진IC",
  "type": "IC",
  "lng": 126.63162,
  "lat": 37.62612,
  "status": "기존",
  "loc": "경기도 김포시 양촌읍 1",
  "src": "국토부 고시·보도(2026-07 조사)",
  "signal": true,
  "pt_role": "ic"
 },
 {
  "line": "수도권제2순환고속도로",
  "name": "하성IC (가칭)",
  "type": "IC",
  "lng": 126.60142,
  "lat": 37.75434,
  "status": "가칭",
  "loc": "경기도 김포시 하성면 1",
  "src": "국토부 고시·보도(2026-07 조사)",
  "signal": true,
  "pt_role": "ic"
 },
 {
  "line": "수도권제2순환고속도로",
  "name": "송촌IC (가칭)",
  "type": "IC",
  "lng": 126.68927,
  "lat": 37.75638,
  "status": "가칭",
  "loc": "경기도 파주시 송촌동 1",
  "src": "국토부 고시·보도(2026-07 조사)",
  "signal": true,
  "pt_role": "ic"
 },
 {
  "line": "수도권제2순환고속도로",
  "name": "파주JC (가칭)",
  "type": "JC",
  "lng": 126.78326,
  "lat": 37.83414,
  "status": "가칭",
  "loc": "경기도 파주시 월롱면 1",
  "src": "국토부 고시·보도(2026-07 조사)",
  "signal": false,
  "pt_role": "jc"
 },
 {
  "line": "수도권제2순환고속도로",
  "name": "도내IC (가칭)",
  "type": "IC",
  "lng": 126.82523,
  "lat": 37.80544,
  "status": "가칭",
  "loc": "경기도 파주시 파주읍 1",
  "src": "국토부 고시·보도(2026-07 조사)",
  "signal": true,
  "pt_role": "ic"
 },
 {
  "line": "수도권제2순환고속도로",
  "name": "법원IC",
  "type": "IC",
  "lng": 126.87232,
  "lat": 37.8634,
  "status": "기존",
  "loc": "경기도 파주시 법원읍 1",
  "src": "국토부 고시·보도(2026-07 조사)",
  "signal": true,
  "pt_role": "ic"
 },
 {
  "line": "수도권제2순환고속도로",
  "name": "곤지암JC",
  "type": "JC",
  "lng": 127.39808,
  "lat": 37.4033,
  "status": "기존",
  "loc": "경기도 광주시 곤지암읍 1",
  "src": "국토부 고시·보도(2026-07 조사)",
  "signal": false,
  "pt_role": "jc"
 },
 {
  "line": "수도권제2순환고속도로",
  "name": "남정IC (가칭)",
  "type": "IC",
  "lng": 127.39141,
  "lat": 37.29604,
  "status": "가칭",
  "loc": "경기도 이천시 신둔면 1",
  "src": "국토부 고시·보도(2026-07 조사)",
  "signal": true,
  "pt_role": "ic"
 },
 {
  "line": "수도권제2순환고속도로",
  "name": "산북IC (가칭)",
  "type": "IC",
  "lng": 127.44058,
  "lat": 37.42458,
  "status": "가칭",
  "loc": "경기도 여주시 산북면 1",
  "src": "국토부 고시·보도(2026-07 조사)",
  "signal": true,
  "pt_role": "ic"
 },
 {
  "line": "수도권제2순환고속도로",
  "name": "남양평JC (가칭)",
  "type": "JC",
  "lng": 127.51266,
  "lat": 37.50944,
  "status": "가칭",
  "loc": "경기도 양평군 양평읍 1",
  "src": "국토부 고시·보도(2026-07 조사)",
  "signal": false,
  "pt_role": "jc"
 },
 {
  "line": "서울양주고속도로",
  "name": "광백IC (가칭·위치 미확정)",
  "type": "IC",
  "lng": 127.01034,
  "lat": 37.82984,
  "status": "가칭·위치 미확정",
  "loc": "경기도 양주시 광적면 1",
  "src": "국토부 고시·보도(2026-07 조사)",
  "signal": true,
  "pt_role": "ic"
 },
 {
  "line": "서울양주고속도로",
  "name": "은현JC (가칭)",
  "type": "JC",
  "lng": 127.05818,
  "lat": 37.87168,
  "status": "가칭",
  "loc": "경기도 양주시 은현면 용암리 1",
  "src": "국토부 고시·보도(2026-07 조사)",
  "signal": false,
  "pt_role": "jc"
 },
 {
  "line": "서울양주고속도로 장암연결구간",
  "name": "장암 접속부 (명칭 미확정)",
  "type": "IC",
  "lng": 127.06555,
  "lat": 37.70641,
  "status": "명칭 미확정",
  "loc": "경기도 의정부시 장암동 1",
  "src": "국토부 고시·보도(2026-07 조사)",
  "signal": true,
  "pt_role": "ic"
 },
 {
  "line": "서울양주고속도로 송추연결구간",
  "name": "송추 분기점 (명칭 미확정)",
  "type": "JC",
  "lng": 126.99468,
  "lat": 37.69531,
  "status": "명칭 미확정",
  "loc": "경기도 양주시 장흥면 1",
  "src": "국토부 고시·보도(2026-07 조사)",
  "signal": false,
  "pt_role": "jc"
 },
 {
  "line": "양주연천고속도로",
  "name": "은현분기점 (가칭)",
  "type": "JC",
  "lng": 127.01925,
  "lat": 37.86374,
  "status": "가칭",
  "loc": "경기도 양주시 은현면 1",
  "src": "국토부 고시·보도(2026-07 조사)",
  "signal": false,
  "pt_role": "jc"
 },
 {
  "line": "양주연천고속도로",
  "name": "군남분기점 (가칭)",
  "type": "JC",
  "lng": 127.05293,
  "lat": 38.02437,
  "status": "가칭",
  "loc": "경기도 연천군 군남면 1",
  "src": "국토부 고시·보도(2026-07 조사)",
  "signal": false,
  "pt_role": "jc"
 },
 {
  "line": "문산개성고속도로",
  "name": "산단JC (가칭)",
  "type": "JC",
  "lng": 126.78326,
  "lat": 37.83414,
  "status": "가칭",
  "loc": "경기도 파주시 월롱면 1",
  "src": "국토부 고시·보도(2026-07 조사)",
  "signal": false,
  "pt_role": "jc"
 },
 {
  "line": "문산개성고속도로",
  "name": "도라산IC (가칭)",
  "type": "IC",
  "lng": 126.7394,
  "lat": 37.92612,
  "status": "가칭",
  "loc": "경기도 파주시 군내면 백연리 1",
  "src": "국토부 고시·보도(2026-07 조사)",
  "signal": true,
  "pt_role": "ic"
 },
 {
  "line": "함양울산고속도로",
  "name": "북함양JC (가칭)",
  "type": "JC",
  "lng": 127.73426,
  "lat": 35.53396,
  "status": "가칭",
  "loc": "경상남도 함양군 함양읍 1",
  "src": "국토부 고시·보도(2026-07 조사)",
  "signal": false,
  "pt_role": "jc"
 },
 {
  "line": "함양울산고속도로",
  "name": "거창JC (가칭)",
  "type": "JC",
  "lng": 127.90878,
  "lat": 35.71045,
  "status": "가칭",
  "loc": "경상남도 거창군 거창읍 1",
  "src": "국토부 고시·보도(2026-07 조사)",
  "signal": false,
  "pt_role": "jc"
 },
 {
  "line": "함양울산고속도로",
  "name": "남거창IC (가칭)",
  "type": "IC",
  "lng": 127.95076,
  "lat": 35.6459,
  "status": "가칭",
  "loc": "경상남도 거창군 남상면 1",
  "src": "국토부 고시·보도(2026-07 조사)",
  "signal": true,
  "pt_role": "ic"
 },
 {
  "line": "함양울산고속도로",
  "name": "합천호IC (가칭)",
  "type": "IC",
  "lng": 127.98612,
  "lat": 35.54029,
  "status": "가칭",
  "loc": "경상남도 합천군 대병면 1",
  "src": "국토부 고시·보도(2026-07 조사)",
  "signal": true,
  "pt_role": "ic"
 },
 {
  "line": "함양울산고속도로",
  "name": "합천IC (가칭)",
  "type": "IC",
  "lng": 128.17955,
  "lat": 35.59268,
  "status": "가칭",
  "loc": "경상남도 합천군 합천읍 1",
  "src": "국토부 고시·보도(2026-07 조사)",
  "signal": true,
  "pt_role": "ic"
 },
 {
  "line": "함양울산고속도로",
  "name": "의령IC (가칭)",
  "type": "IC",
  "lng": 128.29715,
  "lat": 35.28693,
  "status": "가칭",
  "loc": "경상남도 의령군 의령읍 1",
  "src": "국토부 고시·보도(2026-07 조사)",
  "signal": true,
  "pt_role": "ic"
 },
 {
  "line": "함양울산고속도로",
  "name": "창녕JC (가칭)",
  "type": "JC",
  "lng": 128.49211,
  "lat": 35.54455,
  "status": "가칭",
  "loc": "경상남도 창녕군 창녕읍 1",
  "src": "국토부 고시·보도(2026-07 조사)",
  "signal": false,
  "pt_role": "jc"
 },
 {
  "line": "세종포천고속도로",
  "name": "세종JC (가칭)",
  "type": "JC",
  "lng": 127.24091,
  "lat": 36.46469,
  "status": "가칭",
  "loc": "세종특별자치시 장군면 1",
  "src": "국토부 고시·보도(2026-07 조사)",
  "signal": false,
  "pt_role": "jc"
 },
 {
  "line": "세종포천고속도로",
  "name": "연기JC (가칭)",
  "type": "JC",
  "lng": 127.26388,
  "lat": 36.5516,
  "status": "가칭",
  "loc": "세종특별자치시 연기면 1",
  "src": "국토부 고시·보도(2026-07 조사)",
  "signal": false,
  "pt_role": "jc"
 },
 {
  "line": "세종포천고속도로",
  "name": "동천안JC (가칭)",
  "type": "JC",
  "lng": 127.19899,
  "lat": 36.78823,
  "status": "가칭",
  "loc": "충청남도 천안시 동남구 목천읍 1",
  "src": "국토부 고시·보도(2026-07 조사)",
  "signal": false,
  "pt_role": "jc"
 },
 {
  "line": "세종포천고속도로",
  "name": "서운입장IC (가칭)",
  "type": "IC",
  "lng": 127.20963,
  "lat": 36.93797,
  "status": "가칭",
  "loc": "충청남도 천안시 서북구 입장면 1",
  "src": "국토부 고시·보도(2026-07 조사)",
  "signal": true,
  "pt_role": "ic"
 },
 {
  "line": "세종포천고속도로",
  "name": "금광IC (가칭)",
  "type": "IC",
  "lng": 127.30562,
  "lat": 36.98177,
  "status": "가칭",
  "loc": "경기도 안성시 금광면 1",
  "src": "국토부 고시·보도(2026-07 조사)",
  "signal": true,
  "pt_role": "ic"
 },
 {
  "line": "광명서울고속도로(평택파주선 광명~서울 구간)",
  "name": "강서IC",
  "type": "IC",
  "lng": 126.82065,
  "lat": 37.54708,
  "status": "확정",
  "loc": "서울 강서구 외발산동(고시) · 동 대표점 근사",
  "src": "국토부 고시·보도(2026-07 조사)",
  "signal": true,
  "pt_role": "ic"
 },
 {
  "line": "광명서울고속도로(평택파주선 광명~서울 구간)",
  "name": "88JC",
  "type": "JC",
  "lng": 126.81154,
  "lat": 37.57683,
  "status": "기존",
  "loc": "서울 강서구 방화동 · 동 대표점 근사",
  "src": "국토부 고시·보도(2026-07 조사)",
  "signal": false,
  "pt_role": "jc"
 },
 {
  "line": "계양강화고속도로",
  "name": "감정IC (가칭)",
  "type": "IC",
  "lng": 126.69489,
  "lat": 37.62519,
  "status": "가칭",
  "loc": "김포 감정동 · 동 대표점 근사",
  "src": "국토부 고시·보도(2026-07 조사)",
  "signal": true,
  "pt_role": "ic"
 },
 {
  "line": "계양강화고속도로",
  "name": "서암IC (가칭)",
  "type": "IC",
  "lng": 126.60038,
  "lat": 37.69863,
  "status": "가칭",
  "loc": "김포 통진읍 서암리 · 동 대표점 근사",
  "src": "국토부 고시·보도(2026-07 조사)",
  "signal": true,
  "pt_role": "ic"
 },
 {
  "line": "수도권제2순환고속도로",
  "name": "운정IC (가칭)",
  "type": "IC",
  "lng": 126.72406,
  "lat": 37.71145,
  "status": "가칭",
  "loc": "파주 운정 일원 · 동 대표점 근사",
  "src": "국토부 고시·보도(2026-07 조사)",
  "signal": true,
  "pt_role": "ic"
 },
 {
  "line": "수도권제2순환고속도로",
  "name": "신촌IC (가칭)",
  "type": "IC",
  "lng": 127.25143,
  "lat": 37.40122,
  "status": "가칭",
  "loc": "광주 신촌동 · 동 대표점 근사",
  "src": "국토부 고시·보도(2026-07 조사)",
  "signal": true,
  "pt_role": "ic"
 },
 {
  "line": "제천~영월 고속도로(평택영월선)",
  "name": "어상천IC(무인 하이패스·가칭)",
  "type": "IC",
  "lng": 128.37082,
  "lat": 37.13471,
  "status": "가칭",
  "loc": "지방도 519호선 접속 — 리 단위 확인",
  "src": "공식 조사(2026-07-17) — 보도·건의안 기준",
  "signal": true,
  "pt_role": "ic"
 },
 {
  "line": "제천~영월 고속도로(평택영월선)",
  "name": "단양구인사IC(가칭)",
  "type": "IC",
  "lng": 128.39805,
  "lat": 37.14584,
  "status": "가칭",
  "loc": "영춘면 유암리(스니펫 — 원문 미확인)",
  "src": "공식 조사(2026-07-17) — 보도·건의안 기준",
  "signal": true,
  "pt_role": "ic"
 },
 {
  "line": "제천~영월 고속도로(평택영월선)",
  "name": "남영월IC(가칭)",
  "type": "IC",
  "lng": 128.5078,
  "lat": 37.2106,
  "status": "가칭",
  "loc": "강원 영월군 영월읍 팔괴리 — 노선 종점",
  "src": "공식 조사(2026-07-17) — 보도·건의안 기준",
  "signal": true,
  "pt_role": "ic"
 },
 {
  "line": "제천~영월 고속도로(평택영월선)",
  "name": "동제천IC(가칭)",
  "type": "IC",
  "lng": 128.1915,
  "lat": 37.13224,
  "status": "가칭",
  "loc": "충북 제천시 — 읍면동 미확인(시 대표점)",
  "src": "공식 조사(2026-07-17) — 보도·건의안 기준",
  "signal": true,
  "pt_role": "ic"
 },
 {
  "line": "서울~양주 고속도로",
  "name": "광백IC(가칭·위치 미확정)",
  "type": "IC",
  "lng": 126.93098,
  "lat": 37.81337,
  "status": "검토중",
  "loc": "양주시 광적면 — 후보 3곳(광백저수지앞/능안교차로/가래비사거리) 미확정",
  "src": "공식 조사(2026-07-17) — 보도·건의안 기준",
  "signal": true,
  "pt_role": "ic"
 },
 {
  "line": "인천~안산 고속도로(수도권제2순환)",
  "name": "남항IC(가칭)",
  "type": "IC",
  "lng": 126.61285,
  "lat": 37.45395,
  "status": "가칭",
  "loc": "인천 중구 남항로·서해대로 접속 — 동 미확인",
  "src": "공식 조사(2026-07-17) — 보도·건의안 기준",
  "signal": true,
  "pt_role": "ic"
 },
 {
  "line": "인천~안산 고속도로(수도권제2순환)",
  "name": "아암IC(가칭)",
  "type": "IC",
  "lng": 126.6156,
  "lat": 37.41934,
  "status": "가칭",
  "loc": "인천 아암물류단지 일원 — 구·동 미확인",
  "src": "공식 조사(2026-07-17) — 보도·건의안 기준",
  "signal": true,
  "pt_role": "ic"
 },
 {
  "line": "인천~안산 고속도로(수도권제2순환)",
  "name": "오이도IC(가칭)",
  "type": "IC",
  "lng": 126.73835,
  "lat": 37.36188,
  "status": "가칭",
  "loc": "경기 시흥시 — 동 미확인",
  "src": "공식 조사(2026-07-17) — 보도·건의안 기준",
  "signal": true,
  "pt_role": "ic"
 },
 {
  "line": "호남고속도로 확장(동광주IC~광산IC / 지선 서대전JC~회덕JC)",
  "name": "용봉IC 진입로 신설(기존 IC 완전화)",
  "type": "IC",
  "lng": 126.9084,
  "lat": 35.17707,
  "status": "확정",
  "loc": "전남광주통합특별시 북구 용봉동·오치동 — 진출만 가능하던 반쪽 IC에 **진입로 신설** → 없던 진입점 생김",
  "src": "광주드림·한국일보(2025.9 착공)",
  "signal": true,
  "pt_role": "ramp_add"
 }
]