{
 "_note": "도로 대장 — 공식 소스로 존재·단계가 확인된 사업만. **공식 IC가 있으면 IC 점이 기준이고 OSM 선형은 미표시**(2026-07-17).",
 "lines": [
  {
   "name": "강진~광주 고속도로(광주해남완도 1단계)",
   "kind": "고속도로 · 도로공사",
   "phase": "착공",
   "stage": "공사중 — '26 개통 목표",
   "geom": "실선형(OSM 참고) · 위치·단계=공식",
   "src": "도로공사 공식 — 강진~광주 고속도로(광주해남완도 1단계)",
   "stations": [
    {
     "name": "강진광주고속도로 접속부 (이름 미상)",
     "lng": 126.751558,
     "lat": 34.698362,
     "src": "OSM 연결로 클러스터"
    },
    {
     "name": "강진광주고속도로 접속부 (이름 미상)",
     "lng": 126.740156,
     "lat": 34.821142,
     "src": "OSM 연결로 클러스터"
    },
    {
     "name": "강진광주고속도로 접속부 (이름 미상)",
     "lng": 126.741534,
     "lat": 34.77952,
     "src": "OSM 연결로 클러스터"
    },
    {
     "name": "강진광주고속도로 접속부 (이름 미상)",
     "lng": 126.823195,
     "lat": 35.085639,
     "src": "OSM 연결로 클러스터"
    },
    {
     "name": "강진광주고속도로 접속부 (이름 미상)",
     "lng": 126.838698,
     "lat": 35.128105,
     "src": "OSM 연결로 클러스터"
    },
    {
     "name": "강진광주고속도로 접속부 (이름 미상)",
     "lng": 126.820664,
     "lat": 35.018708,
     "src": "OSM 연결로 클러스터"
    }
   ]
  },
  {
   "name": "함양울산선(함양~창녕)",
   "kind": "고속도로 · 국토부/도로공사",
   "phase": "착공",
   "stage": "공사중 — '26 순차 개통 목표(창녕~밀양 '24.12 선개통)",
   "geom": "IC 점 기준(공식) — OSM 선형 미표시",
   "src": "국토부/도로공사 공식 — 함양울산선(함양~창녕)",
   "stations": [
    {
     "name": "북함양JC (가칭)",
     "lng": 127.73426,
     "lat": 35.53396,
     "src": "국토부 고시·보도(2026-07 조사)"
    },
    {
     "name": "거창JC (가칭)",
     "lng": 127.90878,
     "lat": 35.71045,
     "src": "국토부 고시·보도(2026-07 조사)"
    },
    {
     "name": "남거창IC (가칭)",
     "lng": 127.95076,
     "lat": 35.6459,
     "src": "국토부 고시·보도(2026-07 조사)"
    },
    {
     "name": "합천호IC (가칭)",
     "lng": 127.98612,
     "lat": 35.54029,
     "src": "국토부 고시·보도(2026-07 조사)"
    },
    {
     "name": "합천IC (가칭)",
     "lng": 128.17955,
     "lat": 35.59268,
     "src": "국토부 고시·보도(2026-07 조사)"
    },
    {
     "name": "의령IC (가칭)",
     "lng": 128.29715,
     "lat": 35.28693,
     "src": "국토부 고시·보도(2026-07 조사)"
    },
    {
     "name": "창녕JC (가칭)",
     "lng": 128.49211,
     "lat": 35.54455,
     "src": "국토부 고시·보도(2026-07 조사)"
    }
   ]
  },
  {
   "name": "김포~파주 고속도로(수도권제2순환)",
   "kind": "고속도로 · 국토부",
   "phase": "착공",
   "stage": "'19.2 착공 — '27말 개통목표(1년 연기) · 한강하저터널",
   "geom": "IC 점 기준(공식) — OSM 선형 미표시",
   "src": "국토부 공식 — 김포~파주 고속도로(수도권제2순환)",
   "stations": [
    {
     "name": "서김포통진IC",
     "lng": 126.63162,
     "lat": 37.62612,
     "src": "국토부 고시·보도(2026-07 조사)"
    },
    {
     "name": "하성IC (가칭)",
     "lng": 126.60142,
     "lat": 37.75434,
     "src": "국토부 고시·보도(2026-07 조사)"
    },
    {
     "name": "송촌IC (가칭)",
     "lng": 126.68927,
     "lat": 37.75638,
     "src": "국토부 고시·보도(2026-07 조사)"
    },
    {
     "name": "파주JC (가칭)",
     "lng": 126.78326,
     "lat": 37.83414,
     "src": "국토부 고시·보도(2026-07 조사)"
    },
    {
     "name": "도내IC (가칭)",
     "lng": 126.82523,
     "lat": 37.80544,
     "src": "국토부 고시·보도(2026-07 조사)"
    },
    {
     "name": "법원IC",
     "lng": 126.87232,
     "lat": 37.8634,
     "src": "국토부 고시·보도(2026-07 조사)"
    },
    {
     "name": "곤지암JC",
     "lng": 127.39808,
     "lat": 37.4033,
     "src": "국토부 고시·보도(2026-07 조사)"
    },
    {
     "name": "남정IC (가칭)",
     "lng": 127.39141,
     "lat": 37.29604,
     "src": "국토부 고시·보도(2026-07 조사)"
    },
    {
     "name": "산북IC (가칭)",
     "lng": 127.44058,
     "lat": 37.42458,
     "src": "국토부 고시·보도(2026-07 조사)"
    },
    {
     "name": "남양평JC (가칭)",
     "lng": 127.51266,
     "lat": 37.50944,
     "src": "국토부 고시·보도(2026-07 조사)"
    },
    {
     "name": "운정IC (가칭)",
     "lng": 126.72406,
     "lat": 37.71145,
     "src": "국토부 고시·보도(2026-07 조사)"
    },
    {
     "name": "신촌IC (가칭)",
     "lng": 127.25143,
     "lat": 37.40122,
     "src": "국토부 고시·보도(2026-07 조사)"
    }
   ]
  },
  {
   "name": "세종~안성 고속도로(세종포천선)",
   "kind": "고속도로 · 국토부/도로공사",
   "phase": "착공",
   "stage": "'19.12 착공·공사중 (개통목표 공식 미확인)",
   "geom": "IC 점 기준(공식) — OSM 선형 미표시",
   "src": "국토부/도로공사 공식 — 세종~안성 고속도로(세종포천선)",
   "stations": [
    {
     "name": "세종JC (가칭)",
     "lng": 127.24091,
     "lat": 36.46469,
     "src": "국토부 고시·보도(2026-07 조사)"
    },
    {
     "name": "연기JC (가칭)",
     "lng": 127.26388,
     "lat": 36.5516,
     "src": "국토부 고시·보도(2026-07 조사)"
    },
    {
     "name": "동천안JC (가칭)",
     "lng": 127.19899,
     "lat": 36.78823,
     "src": "국토부 고시·보도(2026-07 조사)"
    },
    {
     "name": "서운입장IC (가칭)",
     "lng": 127.20963,
     "lat": 36.93797,
     "src": "국토부 고시·보도(2026-07 조사)"
    },
    {
     "name": "금광IC (가칭)",
     "lng": 127.30562,
     "lat": 36.98177,
     "src": "국토부 고시·보도(2026-07 조사)"
    }
   ]
  },
  {
   "name": "세종~안성 고속도로(세종포천선)",
   "kind": "고속도로 · 국토부/도로공사",
   "phase": "착공",
   "stage": "'19.12 착공·공사중 (개통목표 공식 미확인)",
   "geom": "실선형(OSM 참고) · 위치·단계=공식",
   "src": "국토부/도로공사 공식 — 세종~안성 고속도로(세종포천선)",
   "stations": [
    {
     "name": "세종포천고속도로오송지선 접속부 (이름 미상)",
     "lng": 127.241952,
     "lat": 36.648628,
     "src": "OSM 연결로 클러스터"
    }
   ]
  },
  {
   "name": "제천~영월 고속도로(평택영월선)",
   "kind": "고속도로 · 국토부/도로공사",
   "phase": "인가",
   "stage": "타당성재조사 통과('24.12)·보상/시공사 선정 — 미착공",
   "geom": "실선형(OSM 참고) · 위치·단계=공식",
   "src": "국토부/도로공사 공식 — 제천~영월 고속도로(평택영월선)",
   "stations": []
  },
  {
   "name": "김포~파주 고속도로(수도권제2순환)",
   "kind": "고속도로 · 국토부",
   "phase": "착공",
   "stage": "'19.2 착공 — '27말 개통목표(1년 연기) · 한강하저터널",
   "geom": "IC 점 기준(공식) — OSM 선형 미표시",
   "src": "국토부 공식 — 김포~파주 고속도로(수도권제2순환)",
   "stations": []
  },
  {
   "name": "광명~서울 고속도로(민자)",
   "kind": "고속도로 · 민자(서서울고속도로㈜)",
   "phase": "착공",
   "stage": "공사중 (개통목표 공식 미확인 — 언론 '27~28)",
   "geom": "IC 점 기준(공식) — OSM 선형 미표시",
   "src": "민자(서서울고속도로㈜) 공식 — 광명~서울 고속도로(민자)",
   "stations": [
    {
     "name": "남광명JC",
     "lng": 126.86995,
     "lat": 37.42379,
     "src": "국토부 고시·보도(2026-07 조사)"
    },
    {
     "name": "가학IC",
     "lng": 126.85595,
     "lat": 37.45307,
     "src": "국토부 고시·보도(2026-07 조사)"
    },
    {
     "name": "광명JC",
     "lng": 126.83902,
     "lat": 37.45491,
     "src": "국토부 고시·보도(2026-07 조사)"
    },
    {
     "name": "동부천IC",
     "lng": 126.82165,
     "lat": 37.52018,
     "src": "국토부 고시·보도(2026-07 조사)"
    },
    {
     "name": "강서IC",
     "lng": 126.82065,
     "lat": 37.54708,
     "src": "국토부 고시·보도(2026-07 조사)"
    },
    {
     "name": "88JC",
     "lng": 126.81154,
     "lat": 37.57683,
     "src": "국토부 고시·보도(2026-07 조사)"
    }
   ]
  },
  {
   "name": "계양~강화 고속도로",
   "kind": "고속도로 · 국토부/도로공사",
   "phase": "착공",
   "stage": "'26.3.12 착공식 — '32 준공목표 · 3조2,629억",
   "geom": "IC 점 기준(공식) — OSM 선형 미표시",
   "src": "국토부/도로공사 공식 — 계양~강화 고속도로",
   "stations": [
    {
     "name": "계양JC (가칭)",
     "lng": 126.78739,
     "lat": 37.57551,
     "src": "국토부 고시·보도(2026-07 조사)"
    },
    {
     "name": "이화IC(가칭 풍무IC) (가칭)",
     "lng": 126.71959,
     "lat": 37.61318,
     "src": "국토부 고시·보도(2026-07 조사)"
    },
    {
     "name": "고촌JC (가칭)",
     "lng": 126.76893,
     "lat": 37.61097,
     "src": "국토부 고시·보도(2026-07 조사)"
    },
    {
     "name": "양촌IC (가칭)",
     "lng": 126.63162,
     "lat": 37.62612,
     "src": "국토부 고시·보도(2026-07 조사)"
    },
    {
     "name": "통진JC (가칭)",
     "lng": 126.60755,
     "lat": 37.68401,
     "src": "국토부 고시·보도(2026-07 조사)"
    },
    {
     "name": "고막IC (가칭)",
     "lng": 126.57388,
     "lat": 37.72781,
     "src": "국토부 고시·보도(2026-07 조사)"
    },
    {
     "name": "월곶IC (가칭)",
     "lng": 126.58002,
     "lat": 37.71817,
     "src": "국토부 고시·보도(2026-07 조사)"
    },
    {
     "name": "강화IC (가칭)",
     "lng": 126.51666,
     "lat": 37.73358,
     "src": "국토부 고시·보도(2026-07 조사)"
    },
    {
     "name": "감정IC (가칭)",
     "lng": 126.69489,
     "lat": 37.62519,
     "src": "국토부 고시·보도(2026-07 조사)"
    },
    {
     "name": "서암IC (가칭)",
     "lng": 126.60038,
     "lat": 37.69863,
     "src": "국토부 고시·보도(2026-07 조사)"
    }
   ]
  },
  {
   "name": "국회대로 지하차도·상부공원화(1·2단계)",
   "kind": "간선도로 · 서울시",
   "phase": "착공",
   "stage": "공사중 — '27.12 준공예정 (서울시 건설알림이)",
   "geom": "실선형(OSM 참고) · 위치·단계=공식",
   "src": "서울시 공식 — 국회대로 지하차도·상부공원화(1·2단계)",
   "stations": []
  },
  {
   "name": "동부간선도로 지하화(민자 1공구)",
   "kind": "간선도로 · 민자",
   "phase": "착공",
   "stage": "'24.9 착공 — '29.9 준공예정 (공정 지연)",
   "geom": "실선형(OSM 참고) · 위치·단계=공식",
   "src": "민자 공식 — 동부간선도로 지하화(민자 1공구)",
   "stations": []
  },
  {
   "name": "문산~개성 고속도로(평택파주선 문산~도라산)",
   "kind": "고속도로 · 국토부",
   "phase": "계획",
   "stage": "산단JC·도라산IC — IC 명단 보도 기준",
   "geom": "실선형(OSM 참고) · 위치·단계=공식",
   "src": "국토부 공식 — 문산~개성 고속도로(평택파주선 문산~도라산)",
   "stations": []
  },
  {
   "name": "서울~양주 고속도로",
   "kind": "고속도로 · 국토부",
   "phase": "계획",
   "stage": "실시계획 승인 전 — IC 명단(광백IC·은현JC 등) 보도 기준",
   "geom": "실선형(OSM 참고) · 위치·단계=공식",
   "src": "국토부 공식 — 서울~양주 고속도로",
   "stations": []
  },
  {
   "name": "서울~양주 고속도로 장암연결구간",
   "kind": "고속도로 · 국토부",
   "phase": "계획",
   "stage": "장암(동부간선도로) 접속부",
   "geom": "실선형(OSM 참고) · 위치·단계=공식",
   "src": "국토부 공식 — 서울~양주 고속도로 장암연결구간",
   "stations": []
  },
  {
   "name": "서울~양주 고속도로 송추연결구간",
   "kind": "고속도로 · 국토부",
   "phase": "계획",
   "stage": "송추(수도권제1순환) 분기",
   "geom": "실선형(OSM 참고) · 위치·단계=공식",
   "src": "국토부 공식 — 서울~양주 고속도로 송추연결구간",
   "stations": []
  },
  {
   "name": "양주~연천 고속도로",
   "kind": "고속도로 · 국토부",
   "phase": "계획",
   "stage": "은현분기점~군남분기점 — IC 명단 보도 기준",
   "geom": "실선형(OSM 참고) · 위치·단계=공식",
   "src": "국토부 공식 — 양주~연천 고속도로",
   "stations": []
  }
 ]
}