{
 "_note": "도로 대장 — build_road_v2.py 생성",
 "lines": [
  {
   "name": "강진~광주 고속도로(광주해남완도 1단계)",
   "kind": "고속도로 · 도로공사",
   "phase": "착공",
   "stage": "공사중 — '26 개통 목표",
   "geom": "실선형(OSM 참고) · 위치·단계=공식",
   "src": "도로공사 공식 — 강진~광주 고속도로(광주해남완도 1단계)",
   "stations": [
    {
     "name": "강진~광주 고속도로(광주해남완도 1단계) 진입로(이름 미상)",
     "lng": 126.751558,
     "lat": 34.698362,
     "src": "OSM 연결로 클러스터"
    },
    {
     "name": "강진~광주 고속도로(광주해남완도 1단계) 진입로(이름 미상)",
     "lng": 126.740156,
     "lat": 34.821142,
     "src": "OSM 연결로 클러스터"
    },
    {
     "name": "강진~광주 고속도로(광주해남완도 1단계) 진입로(이름 미상)",
     "lng": 126.741534,
     "lat": 34.77952,
     "src": "OSM 연결로 클러스터"
    },
    {
     "name": "강진~광주 고속도로(광주해남완도 1단계) 진입로(이름 미상)",
     "lng": 126.823195,
     "lat": 35.085639,
     "src": "OSM 연결로 클러스터"
    },
    {
     "name": "강진~광주 고속도로(광주해남완도 1단계) 진입로(이름 미상)",
     "lng": 126.838698,
     "lat": 35.128105,
     "src": "OSM 연결로 클러스터"
    },
    {
     "name": "강진~광주 고속도로(광주해남완도 1단계) 진입로(이름 미상)",
     "lng": 126.820664,
     "lat": 35.018708,
     "src": "OSM 연결로 클러스터"
    }
   ]
  },
  {
   "name": "함양울산선(함양~창녕)",
   "kind": "고속도로 · 국토부/도로공사",
   "phase": "착공",
   "stage": "공사중 — '26 순차 개통 목표(창녕~밀양 '24.12 선개통)",
   "geom": "IC 점 기준(공식) — OSM 선형 미표시",
   "src": "국토부/도로공사 공식 — 함양울산선(함양~창녕)",
   "stations": [
    {
     "name": "북함양JC (가칭) · 분기점(호재 아님)",
     "lng": 127.73426,
     "lat": 35.53396,
     "src": "국토부 고시·보도(2026-07 조사)"
    },
    {
     "name": "거창JC (가칭) · 분기점(호재 아님)",
     "lng": 127.90878,
     "lat": 35.71045,
     "src": "국토부 고시·보도(2026-07 조사)"
    },
    {
     "name": "남거창IC (가칭)",
     "lng": 127.95076,
     "lat": 35.6459,
     "src": "국토부 고시·보도(2026-07 조사)"
    },
    {
     "name": "합천호IC (가칭)",
     "lng": 127.98612,
     "lat": 35.54029,
     "src": "국토부 고시·보도(2026-07 조사)"
    },
    {
     "name": "합천IC (가칭)",
     "lng": 128.17955,
     "lat": 35.59268,
     "src": "국토부 고시·보도(2026-07 조사)"
    },
    {
     "name": "의령IC (가칭)",
     "lng": 128.29715,
     "lat": 35.28693,
     "src": "국토부 고시·보도(2026-07 조사)"
    },
    {
     "name": "창녕JC (가칭) · 분기점(호재 아님)",
     "lng": 128.49211,
     "lat": 35.54455,
     "src": "국토부 고시·보도(2026-07 조사)"
    }
   ]
  },
  {
   "name": "김포~파주 고속도로(수도권제2순환)",
   "kind": "고속도로 · 국토부",
   "phase": "착공",
   "stage": "'19.2 착공 — '27말 개통목표(1년 연기) · 한강하저터널",
   "geom": "IC 점 기준(공식) — OSM 선형 미표시",
   "src": "국토부 공식 — 김포~파주 고속도로(수도권제2순환)",
   "stations": [
    {
     "name": "서김포통진IC",
     "lng": 126.63162,
     "lat": 37.62612,
     "src": "국토부 고시·보도(2026-07 조사)"
    },
    {
     "name": "하성IC (가칭)",
     "lng": 126.60142,
     "lat": 37.75434,
     "src": "국토부 고시·보도(2026-07 조사)"
    },
    {
     "name": "송촌IC (가칭)",
     "lng": 126.68927,
     "lat": 37.75638,
     "src": "국토부 고시·보도(2026-07 조사)"
    },
    {
     "name": "파주JC (가칭) · 분기점(호재 아님)",
     "lng": 126.78326,
     "lat": 37.83414,
     "src": "국토부 고시·보도(2026-07 조사)"
    },
    {
     "name": "도내IC (가칭)",
     "lng": 126.82523,
     "lat": 37.80544,
     "src": "국토부 고시·보도(2026-07 조사)"
    },
    {
     "name": "법원IC",
     "lng": 126.87232,
     "lat": 37.8634,
     "src": "국토부 고시·보도(2026-07 조사)"
    },
    {
     "name": "곤지암JC · 분기점(호재 아님)",
     "lng": 127.39808,
     "lat": 37.4033,
     "src": "국토부 고시·보도(2026-07 조사)"
    },
    {
     "name": "남정IC (가칭)",
     "lng": 127.39141,
     "lat": 37.29604,
     "src": "국토부 고시·보도(2026-07 조사)"
    },
    {
     "name": "산북IC (가칭)",
     "lng": 127.44058,
     "lat": 37.42458,
     "src": "국토부 고시·보도(2026-07 조사)"
    },
    {
     "name": "남양평JC (가칭) · 분기점(호재 아님)",
     "lng": 127.51266,
     "lat": 37.50944,
     "src": "국토부 고시·보도(2026-07 조사)"
    },
    {
     "name": "운정IC (가칭)",
     "lng": 126.72406,
     "lat": 37.71145,
     "src": "국토부 고시·보도(2026-07 조사)"
    },
    {
     "name": "신촌IC (가칭)",
     "lng": 127.25143,
     "lat": 37.40122,
     "src": "국토부 고시·보도(2026-07 조사)"
    }
   ]
  },
  {
   "name": "세종~안성 고속도로(세종포천선)",
   "kind": "고속도로 · 국토부/도로공사",
   "phase": "착공",
   "stage": "'19.12 착공·공사중 (개통목표 공식 미확인)",
   "geom": "IC 점 기준(공식) — OSM 선형 미표시",
   "src": "국토부/도로공사 공식 — 세종~안성 고속도로(세종포천선)",
   "stations": [
    {
     "name": "세종JC (가칭) · 분기점(호재 아님)",
     "lng": 127.24091,
     "lat": 36.46469,
     "src": "국토부 고시·보도(2026-07 조사)"
    },
    {
     "name": "연기JC (가칭) · 분기점(호재 아님)",
     "lng": 127.26388,
     "lat": 36.5516,
     "src": "국토부 고시·보도(2026-07 조사)"
    },
    {
     "name": "동천안JC (가칭) · 분기점(호재 아님)",
     "lng": 127.19899,
     "lat": 36.78823,
     "src": "국토부 고시·보도(2026-07 조사)"
    },
    {
     "name": "서운입장IC (가칭)",
     "lng": 127.20963,
     "lat": 36.93797,
     "src": "국토부 고시·보도(2026-07 조사)"
    },
    {
     "name": "금광IC (가칭)",
     "lng": 127.30562,
     "lat": 36.98177,
     "src": "국토부 고시·보도(2026-07 조사)"
    }
   ]
  },
  {
   "name": "세종~안성 고속도로(세종포천선)",
   "kind": "고속도로 · 국토부/도로공사",
   "phase": "착공",
   "stage": "'19.12 착공·공사중 (개통목표 공식 미확인)",
   "geom": "실선형(OSM 참고) · 위치·단계=공식",
   "src": "국토부/도로공사 공식 — 세종~안성 고속도로(세종포천선)",
   "stations": [
    {
     "name": "세종~안성 고속도로(세종포천선) 진입로(이름 미상)",
     "lng": 127.241952,
     "lat": 36.648628,
     "src": "OSM 연결로 클러스터"
    }
   ]
  },
  {
   "name": "제천~영월 고속도로(평택영월선)",
   "kind": "고속도로 · 국토부/도로공사",
   "phase": "인가",
   "stage": "타당성재조사 통과('24.12)·보상/시공사 선정 — 미착공",
   "geom": "실선형(OSM 참고) · 위치·단계=공식",
   "src": "국토부/도로공사 공식 — 제천~영월 고속도로(평택영월선)",
   "stations": []
  },
  {
   "name": "광명~서울 고속도로(민자)",
   "kind": "고속도로 · 민자(서서울고속도로㈜)",
   "phase": "착공",
   "stage": "공사중 (개통목표 공식 미확인 — 언론 '27~28)",
   "geom": "IC 점 기준(공식) — OSM 선형 미표시",
   "src": "민자(서서울고속도로㈜) 공식 — 광명~서울 고속도로(민자)",
   "stations": [
    {
     "name": "남광명JC · 분기점(호재 아님)",
     "lng": 126.86995,
     "lat": 37.42379,
     "src": "국토부 고시·보도(2026-07 조사)"
    },
    {
     "name": "가학IC",
     "lng": 126.85595,
     "lat": 37.45307,
     "src": "국토부 고시·보도(2026-07 조사)"
    },
    {
     "name": "광명JC · 분기점(호재 아님)",
     "lng": 126.83902,
     "lat": 37.45491,
     "src": "국토부 고시·보도(2026-07 조사)"
    },
    {
     "name": "동부천IC",
     "lng": 126.82165,
     "lat": 37.52018,
     "src": "국토부 고시·보도(2026-07 조사)"
    },
    {
     "name": "강서IC",
     "lng": 126.82065,
     "lat": 37.54708,
     "src": "국토부 고시·보도(2026-07 조사)"
    },
    {
     "name": "88JC · 분기점(호재 아님)",
     "lng": 126.81154,
     "lat": 37.57683,
     "src": "국토부 고시·보도(2026-07 조사)"
    }
   ]
  },
  {
   "name": "계양~강화 고속도로",
   "kind": "고속도로 · 국토부/도로공사",
   "phase": "착공",
   "stage": "'26.3.12 착공식 — '32 준공목표 · 3조2,629억",
   "geom": "IC 점 기준(공식) — OSM 선형 미표시",
   "src": "국토부/도로공사 공식 — 계양~강화 고속도로",
   "stations": [
    {
     "name": "계양JC (가칭) · 분기점(호재 아님)",
     "lng": 126.78739,
     "lat": 37.57551,
     "src": "국토부 고시·보도(2026-07 조사)"
    },
    {
     "name": "이화IC(가칭 풍무IC) (가칭)",
     "lng": 126.71959,
     "lat": 37.61318,
     "src": "국토부 고시·보도(2026-07 조사)"
    },
    {
     "name": "고촌JC (가칭) · 분기점(호재 아님)",
     "lng": 126.76893,
     "lat": 37.61097,
     "src": "국토부 고시·보도(2026-07 조사)"
    },
    {
     "name": "양촌IC (가칭)",
     "lng": 126.63162,
     "lat": 37.62612,
     "src": "국토부 고시·보도(2026-07 조사)"
    },
    {
     "name": "통진JC (가칭) · 분기점(호재 아님)",
     "lng": 126.60755,
     "lat": 37.68401,
     "src": "국토부 고시·보도(2026-07 조사)"
    },
    {
     "name": "고막IC (가칭)",
     "lng": 126.57388,
     "lat": 37.72781,
     "src": "국토부 고시·보도(2026-07 조사)"
    },
    {
     "name": "월곶IC (가칭)",
     "lng": 126.58002,
     "lat": 37.71817,
     "src": "국토부 고시·보도(2026-07 조사)"
    },
    {
     "name": "강화IC (가칭)",
     "lng": 126.51666,
     "lat": 37.73358,
     "src": "국토부 고시·보도(2026-07 조사)"
    },
    {
     "name": "감정IC (가칭)",
     "lng": 126.69489,
     "lat": 37.62519,
     "src": "국토부 고시·보도(2026-07 조사)"
    },
    {
     "name": "서암IC (가칭)",
     "lng": 126.60038,
     "lat": 37.69863,
     "src": "국토부 고시·보도(2026-07 조사)"
    }
   ]
  },
  {
   "name": "국회대로 지하차도·상부공원화(1·2단계)",
   "kind": "간선도로 · 서울시",
   "phase": "착공",
   "stage": "공사중 — '27.12 준공예정 (서울시 건설알림이)",
   "geom": "실선형(OSM 참고) · 위치·단계=공식",
   "src": "서울시 공식 — 국회대로 지하차도·상부공원화(1·2단계)",
   "stations": []
  },
  {
   "name": "동부간선도로 지하화(민자 1공구)",
   "kind": "간선도로 · 민자",
   "phase": "착공",
   "stage": "'24.9 착공 — '29.9 준공예정 (공정 지연)",
   "geom": "실선형(OSM 참고) · 위치·단계=공식",
   "src": "민자 공식 — 동부간선도로 지하화(민자 1공구)",
   "stations": []
  },
  {
   "name": "문산~개성 고속도로(평택파주선 문산~도라산)",
   "kind": "고속도로 · 국토부",
   "phase": "계획",
   "stage": "산단JC·도라산IC — IC 명단 보도 기준",
   "geom": "IC 점 기준(공식) — OSM 선형 미표시",
   "src": "국토부 공식 — 문산~개성 고속도로(평택파주선 문산~도라산)",
   "stations": [
    {
     "name": "산단JC (가칭) · 분기점(호재 아님)",
     "lng": 126.78326,
     "lat": 37.83414,
     "src": "국토부 고시·보도(2026-07 조사)"
    },
    {
     "name": "도라산IC (가칭)",
     "lng": 126.7394,
     "lat": 37.92612,
     "src": "국토부 고시·보도(2026-07 조사)"
    }
   ]
  },
  {
   "name": "서울~양주 고속도로",
   "kind": "고속도로 · 국토부",
   "phase": "계획",
   "stage": "실시계획 승인 전 — IC 명단(광백IC·은현JC 등) 보도 기준",
   "geom": "IC 점 기준(공식) — OSM 선형 미표시",
   "src": "국토부 공식 — 서울~양주 고속도로",
   "stations": [
    {
     "name": "광백IC (가칭·위치 미확정)",
     "lng": 127.01034,
     "lat": 37.82984,
     "src": "국토부 고시·보도(2026-07 조사)"
    },
    {
     "name": "은현JC (가칭) · 분기점(호재 아님)",
     "lng": 127.05818,
     "lat": 37.87168,
     "src": "국토부 고시·보도(2026-07 조사)"
    }
   ]
  },
  {
   "name": "서울~양주 고속도로",
   "kind": "고속도로 · 국토부",
   "phase": "계획",
   "stage": "실시계획 승인 전 — IC 명단(광백IC·은현JC 등) 보도 기준",
   "geom": "IC 점 기준(공식) — OSM 선형 미표시",
   "src": "국토부 공식 — 서울~양주 고속도로",
   "stations": [
    {
     "name": "장암 접속부 (명칭 미확정)",
     "lng": 127.06555,
     "lat": 37.70641,
     "src": "국토부 고시·보도(2026-07 조사)"
    }
   ]
  },
  {
   "name": "서울~양주 고속도로",
   "kind": "고속도로 · 국토부",
   "phase": "계획",
   "stage": "실시계획 승인 전 — IC 명단(광백IC·은현JC 등) 보도 기준",
   "geom": "IC 점 기준(공식) — OSM 선형 미표시",
   "src": "국토부 공식 — 서울~양주 고속도로",
   "stations": [
    {
     "name": "송추 분기점 (명칭 미확정) · 분기점(호재 아님)",
     "lng": 126.99468,
     "lat": 37.69531,
     "src": "국토부 고시·보도(2026-07 조사)"
    }
   ]
  },
  {
   "name": "양주~연천 고속도로",
   "kind": "고속도로 · 국토부",
   "phase": "계획",
   "stage": "은현분기점~군남분기점 — IC 명단 보도 기준",
   "geom": "IC 점 기준(공식) — OSM 선형 미표시",
   "src": "국토부 공식 — 양주~연천 고속도로",
   "stations": [
    {
     "name": "은현분기점 (가칭) · 분기점(호재 아님)",
     "lng": 127.01925,
     "lat": 37.86374,
     "src": "국토부 고시·보도(2026-07 조사)"
    },
    {
     "name": "군남분기점 (가칭) · 분기점(호재 아님)",
     "lng": 127.05293,
     "lat": 38.02437,
     "src": "국토부 고시·보도(2026-07 조사)"
    }
   ]
  },
  {
   "name": "울산외곽순환고속도로(미호JC~가대IC)",
   "kind": "고속도로 · 도로공사",
   "phase": "인가",
   "stage": "설계 완료 — '26 하반기 착공 예정·'29 개통목표(당초 '27서 연기)",
   "geom": "실선형(OSM 참고) · 위치·단계=공식",
   "src": "도로공사 공식 — 울산외곽순환고속도로(미호JC~가대IC)",
   "stations": [
    {
     "name": "울산외곽순환고속도로(미호JC~가대IC) 진입로(이름 미상)",
     "lng": 129.353859,
     "lat": 35.617739,
     "src": "OSM 연결로 클러스터"
    }
   ]
  },
  {
   "name": "서산영덕선 대산~당진",
   "kind": "고속도로 · 도로공사",
   "phase": "착공",
   "stage": "착공(25.36km·9,131억) — '30 개통목표 (본선 당진~영덕은 개통완료)",
   "geom": "실선형(OSM 참고) · 위치·단계=공식",
   "src": "도로공사 공식 — 서산영덕선 대산~당진",
   "stations": [
    {
     "name": "서산영덕선 대산~당진 진입로(이름 미상)",
     "lng": 127.183842,
     "lat": 36.501857,
     "src": "OSM 연결로 클러스터"
    },
    {
     "name": "서산영덕선 대산~당진 진입로(이름 미상)",
     "lng": 126.617204,
     "lat": 36.851666,
     "src": "OSM 연결로 클러스터"
    }
   ]
  },
  {
   "name": "당진청주선 미개통 구간",
   "kind": "고속도로 · 도로공사",
   "phase": "착공",
   "stage": "공사중 — 인주JC~아산IC '27.12, 송악JC~인주JC '29 개통 예정",
   "geom": "실선형(OSM 참고) · 위치·단계=공식",
   "src": "도로공사 공식 — 당진청주선 미개통 구간",
   "stations": [
    {
     "name": "당진청주선 미개통 구간 진입로(이름 미상)",
     "lng": 126.915401,
     "lat": 36.86242,
     "src": "OSM 연결로 클러스터"
    },
    {
     "name": "당진청주선 미개통 구간 진입로(이름 미상)",
     "lng": 126.974581,
     "lat": 36.821865,
     "src": "OSM 연결로 클러스터"
    }
   ]
  },
  {
   "name": "동해고속도로 속초~고성(제진) 연장",
   "kind": "고속도로 · 도로공사",
   "phase": "계획",
   "stage": "사전타당성 용역('23.7 착수) — '28 착공 검토, 개통목표 미정",
   "geom": "실선형(OSM 참고) · 위치·단계=공식",
   "src": "도로공사 공식 — 동해고속도로 속초~고성(제진) 연장",
   "stations": [
    {
     "name": "동해고속도로 속초~고성(제진) 연장 진입로(이름 미상)",
     "lng": 129.34998,
     "lat": 36.379913,
     "src": "OSM 연결로 클러스터"
    }
   ]
  },
  {
   "name": "동해고속도로 속초~고성(제진) 연장",
   "kind": "고속도로 · 도로공사",
   "phase": "계획",
   "stage": "사전타당성 용역('23.7 착수) — '28 착공 검토, 개통목표 미정",
   "geom": "실선형(OSM 참고) · 위치·단계=공식",
   "src": "도로공사 공식 — 동해고속도로 속초~고성(제진) 연장",
   "stations": [
    {
     "name": "동해고속도로 속초~고성(제진) 연장 진입로(이름 미상)",
     "lng": 128.523162,
     "lat": 38.201572,
     "src": "OSM 연결로 클러스터"
    }
   ]
  },
  {
   "name": "광주외곽순환고속도로(고속국도 500호선)",
   "kind": "고속도로 · 국토부·도로공사",
   "phase": "계획",
   "stage": "제2차 고속도로 건설계획 신규사업 — '27 이후 착공 전망, 미착공",
   "geom": "실선형(OSM 참고) · 위치·단계=공식",
   "src": "국토부·도로공사 공식 — 광주외곽순환고속도로(고속국도 500호선)",
   "stations": []
  },
  {
   "name": "광주 북부순환도로 1공구",
   "kind": "일반국도 · 광주시",
   "phase": "계획",
   "stage": "사업비 증액으로 타당성 재조사 중 — '27 착공 가능 전망 (2공구는 '18 개통)",
   "geom": "실선형(OSM 참고) · 위치·단계=공식",
   "src": "광주시 공식 — 광주 북부순환도로 1공구",
   "stations": []
  },
  {
   "name": "광주 북부순환도로 1공구",
   "kind": "일반국도 · 광주시",
   "phase": "계획",
   "stage": "사업비 증액으로 타당성 재조사 중 — '27 착공 가능 전망 (2공구는 '18 개통)",
   "geom": "실선형(OSM 참고) · 위치·단계=공식",
   "src": "광주시 공식 — 광주 북부순환도로 1공구",
   "stations": []
  },
  {
   "name": "호남고속도로 확장(동광주IC~광산IC / 지선 서대전JC~회덕JC)",
   "kind": "고속도로 · 도로공사",
   "phase": "착공",
   "stage": "동광주~광산 '26 상반기 본격화·'29말 완공 / 지선 '26 상반기 착수·'33 완공",
   "geom": "실선형(OSM 참고) · 위치·단계=공식",
   "src": "도로공사 공식 — 호남고속도로 확장(동광주IC~광산IC / 지선 서대전JC~회덕JC)",
   "stations": []
  },
  {
   "name": "국도5호선 거제~마산",
   "kind": "일반국도 · 경남·부산국토관리청",
   "phase": "착공",
   "stage": "'26 초 착공 추진(해상 7.4km+육상) — 사업기간 ~'33 (창원측 육상은 '21 개통)",
   "geom": "실선형(OSM 참고) · 위치·단계=공식",
   "src": "경남·부산국토관리청 공식 — 국도5호선 거제~마산",
   "stations": []
  },
  {
   "name": "전주 국도대체우회도로 용진~우아",
   "kind": "일반국도 · 익산국토관리청",
   "phase": "착공",
   "stage": "공사중(9.9km·2,062억) — '26 완공 예정",
   "geom": "실선형(OSM 참고) · 위치·단계=공식",
   "src": "익산국토관리청 공식 — 전주 국도대체우회도로 용진~우아",
   "stations": []
  },
  {
   "name": "다사~왜관 광역도로",
   "kind": "일반국도 · 대구시",
   "phase": "착공",
   "stage": "공사중(9.6km·2,699억) — '27.5 준공 목표",
   "geom": "실선형(OSM 참고) · 위치·단계=공식",
   "src": "대구시 공식 — 다사~왜관 광역도로",
   "stations": []
  },
  {
   "name": "다사~왜관 광역도로",
   "kind": "일반국도 · 대구시",
   "phase": "착공",
   "stage": "공사중(9.6km·2,699억) — '27.5 준공 목표",
   "geom": "실선형(OSM 참고) · 위치·단계=공식",
   "src": "대구시 공식 — 다사~왜관 광역도로",
   "stations": []
  },
  {
   "name": "상화로 입체화(대심도 지하도로)",
   "kind": "도시고속화 · 대구시",
   "phase": "착공",
   "stage": "'22.3 착공(4.14km·3,400억) — '27 준공 목표",
   "geom": "실선형(OSM 참고) · 위치·단계=공식",
   "src": "대구시 공식 — 상화로 입체화(대심도 지하도로)",
   "stations": [
    {
     "name": "상화로 입체화(대심도 지하도로) 진입로(이름 미상)",
     "lng": 128.530084,
     "lat": 35.808185,
     "src": "OSM 연결로 클러스터"
    },
    {
     "name": "상화로 입체화(대심도 지하도로) 진입로(이름 미상)",
     "lng": 128.553315,
     "lat": 35.808219,
     "src": "OSM 연결로 클러스터"
    }
   ]
  },
  {
   "name": "농소~강동 도로",
   "kind": "일반국도 · 울산시",
   "phase": "착공",
   "stage": "'24.11 기공(11.1km·6,332억) — '31.12 준공 예정",
   "geom": "실선형(OSM 참고) · 위치·단계=공식",
   "src": "울산시 공식 — 농소~강동 도로",
   "stations": []
  },
  {
   "name": "행복도시 외곽순환 행복대로(한별~용호)",
   "kind": "도시고속화 · 행복청",
   "phase": "착공",
   "stage": "공사중(3.34km) — '27 하반기 개통 목표",
   "geom": "실선형(OSM 참고) · 위치·단계=공식",
   "src": "행복청 공식 — 행복도시 외곽순환 행복대로(한별~용호)",
   "stations": [
    {
     "name": "행복도시 외곽순환 행복대로(한별~용호) 진입로(이름 미상)",
     "lng": 127.271345,
     "lat": 36.54229,
     "src": "OSM 연결로 클러스터"
    },
    {
     "name": "행복도시 외곽순환 행복대로(한별~용호) 진입로(이름 미상)",
     "lng": 127.299864,
     "lat": 36.543292,
     "src": "OSM 연결로 클러스터"
    }
   ]
  },
  {
   "name": "검단~경명로 간 도로",
   "kind": "일반국도 · 인천도시공사",
   "phase": "착공",
   "stage": "'22.4 착공(4.09km·2,990억, 검단IC 신설) — '28 완공 목표",
   "geom": "실선형(OSM 참고) · 위치·단계=공식",
   "src": "인천도시공사 공식 — 검단~경명로 간 도로",
   "stations": []
  },
  {
   "name": "국지도84호선 중리~천리",
   "kind": "일반국도 · LH·경기도",
   "phase": "착공",
   "stage": "공사중(6.4km, 동탄2 광역교통대책) — '26.12 준공 목표",
   "geom": "실선형(OSM 참고) · 위치·단계=공식",
   "src": "LH·경기도 공식 — 국지도84호선 중리~천리",
   "stations": []
  },
  {
   "name": "남양주왕숙 국도47호선 이설(지하화)",
   "kind": "자동차전용 · LH",
   "phase": "착공",
   "stage": "공사중(6.4km, 3기신도시 왕숙) — '28 이설 완료 목표",
   "geom": "실선형(OSM 참고) · 위치·단계=공식",
   "src": "LH 공식 — 남양주왕숙 국도47호선 이설(지하화)",
   "stations": [
    {
     "name": "남양주왕숙 국도47호선 이설(지하화) 진입로(이름 미상)",
     "lng": 127.157904,
     "lat": 37.649595,
     "src": "OSM 연결로 클러스터"
    }
   ]
  },
  {
   "name": "평택~부여~익산 2단계(부여~익산)",
   "kind": "고속도로 · 민자",
   "phase": "계획",
   "stage": "미착공 — '29 착공·'34 완공 목표(1단계 평택~부여는 '24.12 개통)",
   "geom": "실선형(OSM 참고) · 위치·단계=공식",
   "src": "민자 공식 — 평택~부여~익산 2단계(부여~익산)",
   "stations": [
    {
     "name": "평택~부여~익산 2단계(부여~익산) 진입로(이름 미상)",
     "lng": 127.088704,
     "lat": 35.943478,
     "src": "OSM 연결로 클러스터"
    }
   ]
  },
  {
   "name": "인천~안산 고속도로(수도권제2순환)",
   "kind": "고속도로 · 국토부",
   "phase": "인가",
   "stage": "제2순환선 유일 미착공 구간 — 1구간(8.4km) '26말 부분착공 추진, 2구간 람사르습지 대안노선 검토",
   "geom": "실선형(OSM 참고) · 위치·단계=공식",
   "src": "국토부 공식 — 인천~안산 고속도로(수도권제2순환)",
   "stations": []
  }
 ]
}